Site	Long	Lat	DisL	DisB	DisH	SigL	SigB	CorrBL	Date
SITEA	96.153	33.795	11.866	-4.084	-2.632	1.00	1.00	0	2019-01-01
SITEB	96.154	33.770	12.481	-4.309	-2.711	1.00	1.00	0	2019-01-02
SITEC	96.155	33.746	13.140	-4.550	-2.794	1.00	1.00	0	2019-01-03
SITED	96.156	33.722	13.845	-4.810	-2.884	1.00	1.00	0	2019-01-04
SITEE	96.157	33.697	14.601	-5.088	-2.982	1.00	1.00	0	2019-01-05